{
  "hokkaido": {
    "prefecture_name": "北海道",
    "city_name": "札幌",
    "commerce": 0.9174909560369202,
    "height": 0.5156601158507494,
    "street": 0.016882524639001084,
    "dev": 0.7438118081065233,
    "url": "",
    "latitude": 43.06881512343716,
    "longitude": 141.35080902251374
  },
  "fukushima": {
    "prefecture_name": "福島県",
    "city_name": "郡山",
    "commerce": 0.4581327102563949,
    "height": 0.6683568526866804,
    "street": 0.8000459704840135,
    "dev": 0.42437198732672865,
    "url": "",
    "latitude": 37.39908378761203,
    "longitude": 140.38837305335136
  },
  "ibaraki": {
    "prefecture_name": "茨城県",
    "city_name": "新鉾田",
    "commerce": 0.2657017429207491,
    "height": 0.2774053876546977,
    "street": 0.056028846878766636,
    "dev": 0.846108010025649,
    "url": "",
    "latitude": 36.152591650972354,
    "longitude": 140.520298097143
  },
  "tochigi": {
    "prefecture_name": "栃木県",
    "city_name": "宇都宮駅",
    "commerce": 0.29239716073934807,
    "height": 0.969216731269828,
    "street": 0.3079294304098371,
    "dev": 0.6962694857254992,
    "url": "",
    "latitude": 36.559171662317226,
    "longitude": 139.89841692017
  },
  "gunma": {
    "prefecture_name": "群馬県",
    "city_name": "桐生駅",
    "commerce": 0.3809690993783801,
    "height": 0.692528242773818,
    "street": 0.13344142134455195,
    "dev": 0.22834965297589316,
    "url": "",
    "latitude": 36.41124863747804,
    "longitude": 139.3330464939761
  },
  "saitama": {
    "prefecture_name": "埼玉県",
    "city_name": "大宮駅",
    "commerce": 0.5259243529785675,
    "height": 0.0059964277504733765,
    "street": 0.04089820229858432,
    "dev": 0.5744081243878244,
    "url": "",
    "latitude": 35.90664835209652,
    "longitude": 139.62387625480682
  },
  "chiba": {
    "prefecture_name": "千葉県",
    "city_name": "西船橋",
    "commerce": 0.642524801498402,
    "height": 0.37399356401525186,
    "street": 0.13040606607724325,
    "dev": 0.98938413808049,
    "url": "",
    "latitude": 35.70763594170492,
    "longitude": 139.95908822596496
  },
  "tokyo": {
    "prefecture_name": "東京都",
    "city_name": "東京",
    "commerce": 0.12611562529517495,
    "height": 0.9852271295661194,
    "street": 0.7181698504298156,
    "dev": 0.9159576297179433,
    "url": "",
    "latitude": 35.68146986608473,
    "longitude": 139.76709603891427
  },
  "kanagawa": {
    "prefecture_name": "神奈川県",
    "city_name": "横浜",
    "commerce": 0.7478577693755513,
    "height": 0.15425812057783828,
    "street": 0.34038546030810646,
    "dev": 0.4451183110964724,
    "url": "",
    "latitude": 35.4661471060577,
    "longitude": 139.62210491246466
  },
  "niigata": {
    "prefecture_name": "新潟県",
    "city_name": "新潟",
    "commerce": 0.18701580601709178,
    "height": 0.7042860506521781,
    "street": 0.08989137347339915,
    "dev": 0.45171675072782624,
    "url": "",
    "latitude": 37.91222500001446,
    "longitude": 139.061742810691926
  },
  "ishikawa": {
    "prefecture_name": "石川県",
    "city_name": "金沢",
    "commerce": 0.8243485175890107,
    "height": 0.7461295570888472,
    "street": 0.5749065685556278,
    "dev": 0.9588616626633197,
    "url": "",
    "latitude": 36.578139496891836,
    "longitude": 136.6482031151632
  },
  "nagano": {
    "prefecture_name": "長野県",
    "city_name": "松本",
    "commerce": 0.5441647611372555,
    "height": 0.7268288241732784,
    "street": 0.1983923596830971,
    "dev": 0.392913029934454,
    "url": "",
    "latitude": 36.23091486933041,
    "longitude": 137.96442741392076
  },
  "gifu": {
    "prefecture_name": "岐阜県",
    "city_name": "岐阜",
    "commerce": 0.634959170958665,
    "height": 0.2776311281348398,
    "street": 0.8358606794333714,
    "dev": 0.8259360317563922,
    "url": "",
    "latitude": 35.40962383333346,
    "longitude": 136.75642160763692
  },
  "shizuoka": {
    "prefecture_name": "静岡県",
    "city_name": "沼津",
    "commerce": 0.5899814099218184,
    "height": 0.35622236625014503,
    "street": 0.28028655792541857,
    "dev": 0.28812584344113645,
    "url": "",
    "latitude": 35.102812994194856,
    "longitude": 138.85983682991784
  },
  "aichi": {
    "prefecture_name": "愛知県",
    "city_name": "名古屋",
    "commerce": 0.9885534259059474,
    "height": 0.055222227741137164,
    "street": 0.6265307426236154,
    "dev": 0.43491703194508224,
    "url": "",
    "latitude": 35.171037762354025,
    "longitude": 136.88148325293426
  },
  "osaka": {
    "prefecture_name": "大阪府",
    "city_name": "大阪",
    "commerce": 0.46388391368779636,
    "height": 0.8553506348239165,
    "street": 0.173112330144377,
    "dev": 0.6825709790923112,
    "url": "",
    "latitude": 34.70358092488814,
    "longitude": 135.49630002383395
  },
  "hyogo": {
    "prefecture_name": "兵庫県",
    "city_name": "加古川",
    "commerce": 0.14991008315082932,
    "height": 0.10144400502784012,
    "street": 0.33420331969339123,
    "dev": 0.3077364946853265,
    "url": "",
    "latitude": 34.767769181800844,
    "longitude": 134.8393006240862
  },
  "tottori": {
    "prefecture_name": "鳥取県",
    "city_name": "鳥取",
    "commerce": 0.8804750544758407,
    "height": 0.974556993708131,
    "street": 0.46267353844563186,
    "dev": 0.7212610602995655,
    "url": "",
    "latitude": 35.4941718751853,
    "longitude": 134.22590952541586
  },
  "hiroshima": {
    "prefecture_name": "広島県",
    "city_name": "呉",
    "commerce": 0.6370652495449021,
    "height": 0.449691210843132,
    "street": 0.8039552136132976,
    "dev": 0.577640544030819,
    "url": "",
    "latitude": 34.244681706739904,
    "longitude": 132.55754617698625
  },
  "ehime": {
    "prefecture_name": "愛媛県",
    "city_name": "松山",
    "commerce": 0.2817730373962233,
    "height": 0.7013251137795573,
    "street": 0.1217217301508372,
    "dev": 0.8950053466375835,
    "url": "",
    "latitude": 33.840761077191615,
    "longitude": 132.75149343961547
  },
  "fukuoka": {
    "prefecture_name": "福岡県",
    "city_name": "小倉",
    "commerce": 0.2790343105986278,
    "height": 0.39326540036524193,
    "street": 0.4498851761692535,
    "dev": 0.17803680469226313,
    "url": "",
    "latitude": 33.887315962282614,
    "longitude": 130.8826239586248
  },
  "kumamoto": {
    "prefecture_name": "熊本県",
    "city_name": "熊本",
    "commerce": 0.4898954669592449,
    "height": 0.9985169351806258,
    "street": 0.5888604900965023,
    "dev": 0.5101536737473584,
    "url": "",
    "latitude": 32.79167900336006,
    "longitude": 130.68829903001244
  },
  "oita": {
    "prefecture_name": "大分県",
    "city_name": "日田",
    "commerce": 0.249927028508088,
    "height": 0.3795203178692842,
    "street": 0.231920922847899,
    "dev": 0.4823458045370952,
    "url": "",
    "latitude": 33.31696728786331,
    "longitude": 130.93900071795107
  },
  "okinawa": {
    "prefecture_name": "沖縄県",
    "city_name": "県庁前",
    "commerce": 0.39888062540816516,
    "height": 0.3208482820116264,
    "street": 0.2847031271363475,
    "dev": 0.7061387899105798,
    "url": "",
    "latitude": 27.0131297962864,
    "longitude": 127.79768544995856
  }
}
